City_ID,City,Lat,Lng,Max Temp,Humidity,Cloudiness,Wind Speed,Country,Date
0,nishinoomote,30.7333,131.0,19.51,69,3,8.49,JP,1715110799
1,tazovsky,67.4667,78.7,-13.28,97,93,3.81,RU,1715111183
2,papao,-17.75,-149.55,28.82,75,98,8.38,PF,1715111183
3,petropavlovsk-kamchatsky,53.0452,158.6483,0.81,78,100,3.58,RU,1715111183
4,port alfred,-33.5906,26.891,21.07,93,26,7.25,ZA,1715111183
5,bredasdorp,-34.5322,20.0403,16.3,83,100,3.43,ZA,1715111184
6,edinburgh of the seven seas,-37.0676,-12.3116,16.18,80,100,17.69,SH,1715111184
7,port-aux-francais,-49.35,70.2167,4.4,76,14,15.03,TF,1715111184
8,lorengau,-2.0226,147.2712,26.96,87,99,5.07,PG,1715111184
9,chinde,26.8418,88.0763,17.88,65,100,2.11,NP,1715111184
10,chonchi,-42.6128,-73.8092,9.56,76,14,1.95,CL,1715111184
11,waitangi,-43.9535,-176.5597,7.68,59,18,3.49,NZ,1715111185
12,dryden,49.7833,-92.7503,14.2,67,100,6.9,CA,1715111185
13,labrador city,52.9463,-66.9114,5.66,73,100,7.15,CA,1715111185
14,hawaiian paradise park,19.5933,-154.9731,24.46,88,100,3.6,US,1715111185
15,port macquarie,-31.4333,152.9167,13.27,70,76,2.44,AU,1715111185
16,sandnessjoen,66.0217,12.6316,10.23,81,75,4.12,NO,1715111185
17,wheaton,41.8661,-88.107,25.71,75,75,6.69,US,1715111185
18,ilulissat,69.2167,-51.1,-3.99,63,75,1.54,GL,1715111186
19,lompoc,34.6391,-120.4579,26.5,61,0,7.2,US,1715111186
20,wailua homesteads,22.0669,-159.378,26.24,77,40,5.14,US,1715111186
21,invercargill,-46.4,168.35,6.68,89,100,3.58,NZ,1715111186
22,adamstown,-25.066,-130.1015,21.77,78,56,4.46,PN,1715111186
23,grytviken,-54.2811,-36.5092,-2.33,79,37,4.52,GS,1715111186
24,nadym,65.5333,72.5167,-2.24,83,100,6.79,RU,1715111187
25,upington,-28.4478,21.2561,22.21,23,46,3.6,ZA,1715111187
26,alaghsas,17.0187,8.0168,33.71,12,100,3.01,NE,1715111187
27,avarua,-21.2078,-159.775,29.03,89,75,4.63,CK,1715111165
28,albany,42.6001,-73.9662,25.38,33,11,0.45,US,1715111187
29,holualoa,19.6228,-155.9522,24.75,74,20,3.09,US,1715111187
30,bethel,41.3712,-73.414,27.11,33,0,3.09,US,1715111187
31,namibe,-15.1961,12.1522,23.51,66,4,3.84,AO,1715111188
32,tweed heads,-28.1817,153.547,17.32,87,68,5.14,AU,1715110847
33,papatowai,-46.5619,169.4708,10.26,78,100,6.27,NZ,1715111188
34,anadyr,64.75,177.4833,-7.72,78,75,2.0,RU,1715111188
35,altay,47.8667,88.1167,12.15,67,32,2.26,CN,1715111188
36,kristiansund,63.1115,7.732,10.03,93,100,3.6,NO,1715111188
37,pedro juan caballero,-22.5472,-55.7333,30.98,40,40,6.69,PY,1715111188
38,vadso,70.0744,29.7487,-0.51,86,40,4.12,NO,1715111189
39,coquimbo,-29.9533,-71.3436,17.85,59,20,5.66,CL,1715111189
40,galesong,-5.3166,119.3661,25.01,86,46,1.75,ID,1715111189
41,puerto ayora,-0.7393,-90.3518,29.98,93,67,0.45,EC,1715111189
42,saint-philippe,-21.3585,55.7679,23.77,76,46,5.38,RE,1715111189
43,klyuchi,52.2667,79.1667,12.6,76,100,2.64,RU,1715111189
44,vernon,50.2581,-119.2691,14.78,40,97,0.89,CA,1715111189
45,ribeira grande,38.5167,-28.7,19.22,88,40,7.6,PT,1715111190
46,coahuayana de hidalgo,18.7,-103.6583,31.96,40,100,3.45,MX,1715111190
47,west island,-12.1568,96.8225,26.99,78,40,4.12,CC,1715111190
48,talnakh,69.4865,88.3972,-11.0,95,98,2.27,RU,1715111190
49,ushuaia,-54.8,-68.3,3.81,65,40,2.57,AR,1715111190
50,pizarro,4.9533,-77.366,28.04,82,100,4.19,CO,1715111190
51,norilsk,69.3535,88.2027,-10.88,96,97,2.0,RU,1715111191
52,arafat,21.3594,39.9664,28.71,23,0,3.59,SA,1715111191
53,de haan,51.272,3.0429,12.45,81,75,5.66,BE,1715111191
54,iskateley,67.6803,53.1512,-8.32,95,100,4.47,RU,1715111191
55,pandan,14.0453,124.1694,26.43,81,29,3.41,PH,1715111191
56,san antonio de pale,-1.4014,5.6325,27.54,84,100,2.57,GQ,1715111191
57,m'sila,35.7058,4.5419,21.67,50,1,7.67,DZ,1715111191
58,georgetown,5.4112,100.3354,28.97,86,20,1.03,MY,1715111192
59,blackmans bay,-43.0167,147.3167,10.96,87,100,1.68,AU,1715111192
60,sitka,57.0531,-135.33,7.94,71,75,5.14,US,1715111192
61,pimentel,-6.8367,-79.9342,22.16,73,0,9.26,PE,1715111192
62,aasiaat,68.7098,-52.8699,-4.23,92,100,2.25,GL,1715111192
63,pont rouge,48.8833,-72.0825,7.91,60,94,7.37,CA,1715111192
64,jianguang,28.1938,115.7836,21.04,82,100,1.73,CN,1715111192
65,hermanus,-34.4187,19.2345,14.89,84,100,3.46,ZA,1715111193
66,punta arenas,-53.15,-70.9167,3.06,87,100,4.63,CL,1715111193
67,nemuro,43.3236,145.575,2.71,90,100,8.94,JP,1715111193
68,rabo de peixe,37.8,-25.5833,18.73,99,20,3.09,PT,1715111193
69,priob'ye,62.5206,65.5964,-1.1,91,93,6.37,RU,1715111193
70,helena valley west central,46.6629,-112.0604,7.86,49,100,12.35,US,1715111193
71,stanley,54.868,-1.6985,9.77,87,0,2.06,GB,1715111193
72,luderitz,-26.6481,15.1594,16.28,88,0,6.62,NA,1715111194
73,ulladulla,-35.35,150.4667,14.16,87,66,1.96,AU,1715111194
74,reggane,26.7158,0.1714,34.09,5,0,4.88,DZ,1715111194
75,longyearbyen,78.2186,15.6401,0.91,80,75,6.69,SJ,1715111194
76,port washington,40.8257,-73.6982,28.84,37,20,1.79,US,1715111194
77,vila franca do campo,37.7167,-25.4333,19.23,99,0,3.91,PT,1715111194
78,slave lake,55.2834,-114.769,6.34,79,100,6.24,CA,1715111017
79,carnarvon,-24.8667,113.6333,19.99,44,99,5.73,AU,1715111195
80,aktobe,50.2797,57.2072,8.05,71,0,3.0,KZ,1715111195
81,flying fish cove,-10.4217,105.6791,24.82,94,100,6.69,CX,1715111195
82,ust-nera,64.5667,143.2,-0.5,88,100,1.89,RU,1715111195
83,kirensk,57.7853,108.1119,2.2,75,15,1.34,RU,1715111195
84,lebu,-37.6167,-73.65,10.93,62,1,2.76,CL,1715111195
85,besana in brianza,45.7038,9.2859,13.98,94,100,1.56,IT,1715111196
86,college,64.8569,-147.8028,8.04,80,75,1.54,US,1715111196
87,kristinestad,62.2743,21.376,-0.5,67,4,4.66,FI,1715111196
88,bilibino,68.0546,166.4372,-2.86,92,89,1.15,RU,1715111196
89,mar del plata,-38.0023,-57.5575,17.27,95,100,5.14,AR,1715111196
90,greenville,35.6127,-77.3663,29.51,66,100,2.57,US,1715111196
91,smithers,54.7804,-127.1743,10.9,33,28,3.1,CA,1715111196
92,mili,6.0815,171.735,28.08,84,94,8.86,MH,1715111197
93,malabar,-33.9667,151.25,15.07,91,100,4.63,AU,1715111197
94,nar'yan-mar,67.6713,53.087,-8.27,95,100,4.47,RU,1715111197
95,kemijarvi,66.7131,27.4306,-6.44,93,14,2.26,FI,1715111197
96,mil'kovo,55.6078,37.7956,3.0,90,100,5.17,RU,1715111197
97,colonia,50.9333,6.95,16.01,85,59,2.17,DE,1715111197
98,thompson,55.7435,-97.8558,15.07,40,7,6.43,CA,1715111198
99,vilyuchinsk,52.9306,158.4028,1.63,86,100,2.27,RU,1715111198
100,salalah,17.0151,54.0924,30.05,84,75,3.6,OM,1715111198
101,dudinka,69.4058,86.1778,-10.77,99,92,2.52,RU,1715111198
102,port elizabeth,-33.918,25.5701,20.05,90,75,8.23,ZA,1715111198
103,kharp,66.8014,65.8081,-9.6,85,29,3.26,RU,1715111199
104,tiksi,71.6872,128.8694,-1.13,98,100,4.06,RU,1715111199
105,northam,51.0333,-4.2167,11.88,91,27,2.05,GB,1715111199
106,iqaluit,63.7506,-68.5145,-0.17,82,34,7.15,CA,1715111199
107,west bay,19.3667,-81.4167,31.04,70,40,4.12,KY,1715111199
108,trikala,39.5553,21.7675,18.29,58,100,1.76,GR,1715111199
109,whitehorse,60.7161,-135.0538,8.34,50,67,5.81,CA,1715111046
110,ancud,-41.8697,-73.8203,9.15,67,17,4.1,CL,1715111200
111,yellowknife,62.456,-114.3525,11.9,82,100,1.34,CA,1715110917
112,san andres,12.5847,-81.7006,32.01,70,20,3.6,CO,1715111200
113,sao tome,0.3365,6.7273,27.89,83,97,3.28,ST,1715111200
114,nyurba,63.2842,118.3319,-1.14,90,36,4.88,RU,1715111200
115,grand falls-windsor,48.9332,-55.6649,11.95,85,84,0.45,CA,1715111200
116,mineiros,-17.5694,-52.5511,27.16,55,0,2.92,BR,1715111201
117,nueva gerona,21.8833,-82.8,31.65,57,9,5.95,CU,1715111201
118,huarmey,-10.0681,-78.1522,22.42,76,90,6.09,PE,1715111201
119,la passe,45.5549,-0.8967,17.13,86,0,3.08,FR,1715111201
120,kodiak,57.79,-152.4072,4.73,87,100,5.14,US,1715111201
121,mendi,-6.1761,143.6513,14.05,97,100,0.71,PG,1715111201
122,vorgashor,67.5833,63.95,-15.67,97,74,2.66,RU,1715111201
123,jieshi,22.8134,115.8257,23.93,84,100,2.77,CN,1715111202
124,kapa'a,22.0752,-159.319,26.99,77,40,5.14,US,1715111202
125,quellon,-43.1167,-73.6167,7.92,72,83,1.11,CL,1715111202
126,port-gentil,-0.7193,8.7815,27.98,89,40,4.12,GA,1715111202
127,puerto natales,-51.7236,-72.4875,3.25,65,0,2.06,CL,1715111202
128,hamilton,39.1834,-84.5333,25.68,83,75,6.17,US,1715111202
129,keetmanshoop,-26.5833,18.1333,23.51,25,4,3.6,NA,1715111202
130,ebon,4.582,168.6964,26.18,91,100,4.07,MH,1715111203
131,saint-paul,-21.0096,55.2707,24.06,74,87,0.92,RE,1715111203
132,sao raimundo nonato,-9.0153,-42.6994,30.75,45,98,3.9,BR,1715111203
133,hithadhoo,-0.6,73.0833,29.54,76,100,5.09,MV,1715111203
134,vila velha,-20.3297,-40.2925,27.97,69,40,3.09,BR,1715111203
135,moroni,-11.7022,43.2551,26.55,78,99,2.39,KM,1715111203
136,saipan,15.1355,145.701,27.39,78,20,3.09,MP,1715111204
137,hami,42.8,93.45,24.09,23,33,3.33,CN,1715111204
138,tinajo,29.0788,-13.7081,20.49,73,0,7.72,ES,1715111204
139,turabah,21.2141,41.6331,25.96,20,0,2.69,SA,1715111204
140,al kharj,24.155,47.3346,32.32,15,2,3.42,SA,1715111204
141,severo-yeniseyskiy,60.3725,93.0408,-3.01,96,100,1.79,RU,1715111204
142,naze,28.3667,129.4833,17.51,69,79,3.01,JP,1715111204
143,tuy hoa,13.0833,109.3,25.73,92,72,0.57,VN,1715111205
144,saint-joseph,-21.3667,55.6167,23.21,74,27,5.89,RE,1715111205
145,tralee,52.2704,-9.7026,10.9,87,100,1.03,IE,1715111205
146,hadibu,12.65,54.0333,29.33,75,10,0.93,YE,1715111205
147,selfoss,63.9331,-20.9971,7.8,69,84,8.5,IS,1715111205
148,tura,25.5198,90.2201,21.35,82,100,1.47,IN,1715111205
149,luanda,-8.8368,13.2343,27.0,88,75,3.6,AO,1715111206
150,pointe-noire,-4.7761,11.8635,28.04,89,40,3.09,CG,1715111206
151,caleta de carquin,-11.0925,-77.6267,21.41,79,74,5.46,PE,1715111206
152,porto novo,6.4965,2.6036,28.9,77,100,3.73,BJ,1715111206
153,nadi,-17.8,177.4167,24.0,83,20,1.03,FJ,1715111206
154,st. john's,47.5649,-52.7093,9.32,93,100,1.34,CA,1715111206
155,prabumulih,-3.45,104.25,23.83,99,100,0.56,ID,1715111207
156,at taraf,25.3628,49.725,31.3,43,15,3.63,SA,1715111207
157,la plata,-34.9215,-57.9545,20.46,98,100,1.79,AR,1715111207
158,codrington,-38.2667,141.9667,8.8,94,33,3.33,AU,1715111207
159,t'q'ibuli,42.3512,42.9987,8.51,99,100,1.79,GE,1715111207
160,urubamba,-13.3047,-72.1158,25.5,61,99,2.74,PE,1715111207
161,pisco,-13.7,-76.2167,23.03,73,0,8.75,PE,1715111207
162,qaqortoq,60.7167,-46.0333,1.06,55,79,1.32,GL,1715111208
163,saint-pierre,-21.3393,55.4781,23.82,69,0,8.75,RE,1715111208
164,nagqu,31.5,92.0,1.05,58,100,2.59,CN,1715111208
165,newman,37.3138,-121.0208,21.24,54,7,5.81,US,1715111208
166,fale old settlement,-9.3852,-171.2468,29.62,74,97,3.56,TK,1715111208
167,isafjordur,66.0755,-23.124,5.02,81,75,4.12,IS,1715111208
168,carauari,-4.8828,-66.8958,30.59,68,100,0.57,BR,1715111209
169,weno,7.4515,151.8468,25.97,94,100,5.14,FM,1715111209
170,humaita,-7.5061,-63.0208,33.3,52,100,1.29,BR,1715111209
171,oildale,35.4197,-119.0195,20.7,50,0,2.57,US,1715111209
172,howard springs,-12.497,131.047,23.95,97,35,2.53,AU,1715111209
173,bom jesus do itabapoana,-21.1339,-41.6797,25.48,75,3,1.71,BR,1715111209
174,rafraf,37.1904,10.1837,20.17,76,100,6.62,TN,1715111209
175,portland,45.5234,-122.6762,14.8,70,75,5.14,US,1715110637
176,kolkwitz,51.75,14.25,10.68,87,100,1.77,DE,1715111210
177,rio grande,-32.035,-52.0986,22.06,94,91,4.11,BR,1715111210
178,geraldton,-28.7667,114.6,19.23,45,83,7.72,AU,1715111210
179,glendive,47.1053,-104.7125,9.86,93,100,9.26,US,1715111210
180,kotido,2.9806,34.1331,21.63,83,34,0.53,UG,1715111210
181,sao miguel do araguaia,-13.275,-50.1628,31.55,47,11,2.3,BR,1715111210
182,mezhdurechensk,53.6942,88.0603,7.98,66,100,1.32,RU,1715111211
183,whangarei,-35.7317,174.3239,9.41,92,36,1.88,NZ,1715111211
184,ati,13.2154,18.3353,34.27,9,100,2.37,TD,1715111211
185,quibdo,5.6947,-76.6611,31.19,74,75,0.0,CO,1715111211
186,motueka,-41.1333,173.0167,5.61,85,7,1.69,NZ,1715111211
187,phalaborwa,-23.943,31.1411,20.29,45,0,0.96,ZA,1715111211
188,buka,40.8108,69.1986,22.33,41,100,2.89,UZ,1715111211
189,harstad,68.799,16.5293,4.53,62,6,15.2,NO,1715111212
190,elliot lake,46.3834,-82.6331,19.87,34,100,4.52,CA,1715111212
191,mount gambier,-37.8333,140.7667,7.41,96,6,2.11,AU,1715111212
192,ar ruways,24.1103,52.7306,30.8,56,0,3.29,AE,1715111212
193,juneau,58.3019,-134.4197,7.0,91,100,10.8,US,1715111169
194,udachny,66.4167,112.4,-0.31,98,96,8.26,RU,1715111212
195,zakynthos,37.7914,20.8953,17.62,68,20,0.0,GR,1715111212
196,zheleznogorsk,52.331,35.3711,3.1,82,100,6.79,RU,1715111213
197,jabor,5.921,169.6434,28.11,86,99,9.6,MH,1715111213
198,margaret river,-33.95,115.0667,14.55,72,29,4.98,AU,1715111213
199,bac lieu,9.285,105.7244,29.82,71,12,4.85,VN,1715111213
200,afaahiti,-17.75,-149.2833,27.93,77,92,7.04,PF,1715111213
201,pariaman,-0.619,100.12,26.03,95,100,3.66,ID,1715111213
202,ivdel',60.6911,60.4206,1.68,65,66,2.24,RU,1715111214
203,ambon,-3.6954,128.1814,27.15,95,40,1.03,ID,1715111214
204,usinsk,65.9939,57.5281,-4.4,90,100,6.26,RU,1715111214
205,kenai,60.5544,-151.2583,10.05,57,20,5.66,US,1715111214
206,saint croix,17.7397,-64.7388,26.09,88,35,1.79,VI,1715111214
207,port lincoln,-34.7333,135.8667,14.88,87,73,5.11,AU,1715111214
208,taltal,-25.4,-70.4833,16.5,71,100,1.35,CL,1715111214
209,san sebastian de la gomera,28.0916,-17.1133,22.43,78,0,3.09,ES,1715111215
210,oltu,40.5498,42.0013,7.1,85,100,1.5,TR,1715111215
211,moab,38.5733,-109.5498,18.03,21,89,1.34,US,1715110610
212,adrar,20.5022,-10.0711,34.07,7,100,3.56,MR,1715111215
213,nueva esperanza,15.2667,-87.6,35.79,26,9,3.25,HN,1715111215
214,keflavik,64.0049,-22.5624,5.95,75,75,9.77,IS,1715111215
215,posto fiscal rolim de moura,-13.0833,-62.2667,33.84,43,90,2.37,BR,1715111215
216,la ronge,55.1001,-105.2842,12.31,52,100,5.93,CA,1715111216
217,tual,-5.6667,132.75,27.62,78,59,3.92,ID,1715111216
218,olonkinbyen,70.9221,-8.7187,0.42,90,0,7.6,SJ,1715111216
219,adler,43.43,39.92,13.09,88,100,3.0,RU,1715111216
220,egilsstadir,65.2653,-14.3948,8.95,57,20,8.75,IS,1715111216
221,utrik,11.2278,169.8474,27.86,73,100,7.78,MH,1715111216
222,bentiu,9.2333,29.8333,33.28,15,1,2.82,SS,1715111216
223,sinabang,2.4803,96.3801,26.85,80,91,1.39,ID,1715111217
224,nsanje,-16.92,35.262,21.16,80,0,1.43,MW,1715111217
225,mount isa,-20.7333,139.5,20.87,40,86,4.12,AU,1715111217
226,bathurst,-33.4166,149.5806,9.35,98,34,1.75,AU,1715111217
227,zhangjiakou,40.81,114.8794,14.83,40,61,1.68,CN,1715111217
228,buchanan,5.8808,-10.0467,28.09,82,38,4.17,LR,1715111218
229,ixtapa,20.7,-105.2,26.57,74,100,5.14,MX,1715111218
230,port mathurin,-19.6833,63.4167,25.65,62,37,11.36,MU,1715111218
231,salekhard,66.53,66.6019,-9.22,90,84,6.71,RU,1715111218
232,arraial do cabo,-22.9661,-42.0278,27.98,65,0,8.75,BR,1715111218
233,fort bragg,35.139,-79.006,31.57,61,75,4.12,US,1715111218
234,kimbe,-5.5502,150.1429,25.03,94,95,2.29,PG,1715111218
235,haiku-pauwela,20.9219,-156.3051,25.68,76,20,7.72,US,1715111219
236,digne-les-bains,44.0833,6.25,8.71,93,98,2.07,FR,1715111219
237,emirdag,39.0197,31.15,12.31,37,1,1.37,TR,1715111219
238,pemangkat,1.1667,108.9667,28.15,76,100,1.99,ID,1715111219
239,susuman,62.7833,148.1667,0.55,75,95,2.24,RU,1715111219
240,nili,33.7218,66.1302,16.33,43,43,1.73,AF,1715111219
241,sirte,31.2089,16.5887,22.18,54,92,9.19,LY,1715111220
242,ironwood,46.4547,-90.171,11.45,94,100,6.69,US,1715111220
243,awjilah,29.1081,21.2869,25.52,19,30,4.08,LY,1715111220
244,pudozh,61.8099,36.5345,-2.25,76,100,4.02,RU,1715111220
245,jamestown,42.097,-79.2353,22.8,46,0,0.0,US,1715111220
246,troitskoye,52.9821,84.6757,11.1,60,100,0.79,RU,1715111220
247,garissa,-0.4536,39.6401,27.09,68,100,6.86,KE,1715111221
248,torremolinos,36.6204,-4.4998,19.99,77,0,2.06,ES,1715111221
249,vilyuysk,63.7553,121.6247,2.78,85,99,4.47,RU,1715111221
250,ribeira brava,32.65,-17.0667,21.67,80,100,3.59,PT,1715111221
251,bojnurd,37.4747,57.329,15.97,77,0,2.06,IR,1715111221
252,taoudenni,22.6783,-3.9836,34.5,5,29,1.17,ML,1715111221
253,bu'aale,1.0833,42.5833,26.31,79,100,3.86,SO,1715111221
254,omutinskiy,56.4745,67.6709,4.49,66,95,1.7,RU,1715111222
255,bermejo,-32.8833,-68.8,15.95,59,40,1.54,AR,1715111222
256,samana,19.2056,-69.3369,30.12,70,75,2.06,DO,1715111222
257,chengde,40.9725,117.9361,12.34,42,45,0.57,CN,1715111222
258,lieksa,63.3167,30.0167,-2.8,67,25,4.23,FI,1715111222
259,smara,26.7384,-11.6719,29.55,26,96,8.2,EH,1715111222
260,enewetak,11.3474,162.3373,27.59,82,93,9.66,MH,1715111223
261,walvis bay,-22.9575,14.5053,16.53,82,0,2.57,NA,1715111223
262,uturoa,-16.7333,-151.4333,27.96,76,90,8.82,PF,1715111223
263,altai,46.3722,96.2583,10.28,54,100,1.58,MN,1715111223
264,fada,9.5667,8.3,22.85,84,100,1.32,NG,1715111223
265,polyarnyy,69.1989,33.4478,-5.76,71,80,3.81,RU,1715111224
266,san patricio,28.017,-97.5169,32.4,71,100,4.88,US,1715110985
267,sovetskaya gavan',48.9723,140.2878,0.61,80,0,1.55,RU,1715111224
268,lazaro cardenas,17.9583,-102.2,29.09,54,100,5.21,MX,1715111224
269,palikir - national government center,6.9248,158.1611,27.41,89,75,2.57,FM,1715111224
270,oliver,49.1831,-119.5524,14.83,27,98,5.55,CA,1715111224
271,byron bay,-28.65,153.6167,15.39,85,65,3.76,AU,1715111224
272,portsmouth,50.799,-1.0913,16.73,76,48,0.45,GB,1715111225
273,castillos,-34.1667,-53.8333,19.79,98,100,3.05,UY,1715111225
274,plettenberg bay,-34.0527,23.3716,16.94,93,98,2.77,ZA,1715111225
275,kerikeri,-35.2268,173.9474,9.39,92,61,1.79,NZ,1715111225
276,kingston,17.997,-76.7936,30.53,74,75,6.69,JM,1715111225
277,palmas,-10.2128,-48.3603,32.93,49,0,3.6,BR,1715111225
278,atafu village,-8.5421,-172.5159,29.61,74,94,4.72,TK,1715111225
279,fort st. john,56.2499,-120.8529,13.21,25,94,6.99,CA,1715111226
280,bardai,11.65,7.2333,29.69,43,100,3.03,NG,1715111226
281,loukhi,66.0764,33.0381,-4.52,86,96,5.0,RU,1715111226
282,bamboo flat,11.7,92.7167,26.05,94,40,1.03,IN,1715111226
283,east tamworth,-31.0894,150.9436,7.77,87,0,4.12,AU,1715111226
284,hobyo,5.3505,48.5268,29.24,76,95,4.55,SO,1715111226
285,ciudad constitucion,25.0369,-111.6644,28.7,21,97,6.8,MX,1715111227
286,bandon,51.7469,-8.7425,11.77,94,100,2.7,IE,1715111227
287,cabugao,17.7931,120.4578,26.92,69,11,1.39,PH,1715111227
288,tamanrasset,22.785,5.5228,31.95,12,40,3.6,DZ,1715111227
289,puerto baquerizo moreno,-0.9,-89.6,29.55,62,40,6.17,EC,1715111227
290,les cayes,18.2,-73.75,30.15,63,12,4.36,HT,1715111227
291,lihue,21.9789,-159.3672,26.58,71,40,5.14,US,1715111228
292,gadzhiyevo,69.2551,33.3362,-4.88,70,95,3.97,RU,1715111228
293,tokonou,9.65,-9.7833,25.86,67,95,1.24,GN,1715111228
294,swakopmund,-22.6833,14.5333,16.47,84,0,2.24,NA,1715111228
295,oberwart,47.2897,16.206,14.9,97,100,1.74,AT,1715111228
296,alpine,32.835,-116.7664,24.65,53,0,5.14,US,1715111123
297,recani,31.2846,-4.2688,29.16,10,9,2.72,MA,1715111228
298,trail,49.0998,-117.7022,16.49,38,100,2.23,CA,1715111111
299,oromocto,45.8351,-66.4792,20.4,35,83,4.02,CA,1715111229
300,le port,-20.9373,55.2919,24.0,72,65,2.62,RE,1715111229
301,wenling,28.3669,121.36,17.72,93,99,1.46,CN,1715111229
302,karratha,-20.7377,116.8463,24.55,69,0,2.04,AU,1715111229
303,port moresby,-9.4431,147.1797,24.68,88,75,2.57,PG,1715111229
304,chibougamau,49.9168,-74.3659,3.55,70,100,4.48,CA,1715111229
305,pathein,16.7833,94.7333,28.85,77,100,5.0,MM,1715111230
306,fonte boa,-2.4959,-66.2662,27.55,85,100,0.47,BR,1715111230
307,geiro,-6.15,36.8667,15.37,97,41,1.29,TZ,1715111230
308,aripuana,-9.1667,-60.6333,28.12,81,93,0.16,BR,1715111230
309,challapata,-18.9,-66.7667,15.11,25,91,2.62,BO,1715111230
310,tukrah,32.5341,20.5791,19.17,49,2,3.82,LY,1715111230
311,semenov,56.7875,44.493,0.67,98,100,5.87,RU,1715111231
312,callao,-12.0667,-77.15,21.16,73,20,5.14,PE,1715111231
313,sitangkai,4.6628,119.3928,28.35,79,100,2.57,PH,1715111231
314,taro,-8.3862,115.28,23.0,100,100,0.28,ID,1715111231
315,wynyard,-41.0,145.7167,13.03,69,90,3.76,AU,1715111231
316,kaa-khem,51.6833,94.7333,10.85,55,30,2.56,RU,1715111231
317,konarka,19.9,86.1167,25.42,81,97,1.35,IN,1715111231
318,el haouaria,37.05,11.0144,19.01,78,100,1.97,TN,1715111232
319,takoradi,4.8845,-1.7554,27.72,80,42,3.95,GH,1715111232
320,fruitland,38.3221,-75.6202,23.83,82,100,4.12,US,1715111232
321,qarah zia' od din,38.8915,45.0255,10.48,75,100,1.23,IR,1715111232
322,saint-francois,46.4154,3.9054,13.69,83,0,2.06,FR,1715111232
323,san juanito,28.0,-107.5833,22.71,9,100,8.04,MX,1715111232
324,hwasun,35.0594,126.985,10.8,94,100,2.17,KR,1715111233
325,kotma,23.2,81.9667,26.81,56,96,5.06,IN,1715111233
326,al badari,26.9926,31.4155,24.08,16,0,3.89,EG,1715111233
327,catalao,-18.1658,-47.9464,26.04,55,18,2.85,BR,1715111233
328,mossel bay,-34.1831,22.146,16.96,88,77,3.38,ZA,1715111233
329,orchard homes,46.8633,-114.0484,9.04,52,100,10.8,US,1715111233
330,barrouallie,13.2333,-61.2667,30.79,66,20,2.06,VC,1715111233
331,cabo san lucas,22.8909,-109.9124,29.78,53,100,3.6,MX,1715111199
332,kidal,18.4411,1.4078,34.45,11,100,4.73,ML,1715111234
333,hasaki,35.7333,140.8333,17.22,93,100,3.5,JP,1715111234
334,songyang,34.4553,113.0281,17.23,54,94,1.64,CN,1715111234
335,tabou,4.423,-7.3528,27.9,80,85,3.48,CI,1715111234
336,aleksandrovsk,59.158,57.5624,2.11,52,100,2.88,RU,1715111234
337,acarau,-2.8856,-40.12,27.71,85,51,4.39,BR,1715111032
338,natchez,31.5604,-91.4032,28.69,72,75,6.17,US,1715111235
339,caconda,-13.7333,15.0667,16.74,52,2,1.6,AO,1715111235
340,pietermaritzburg,-29.6168,30.3928,17.61,45,0,1.93,ZA,1715111235
341,tsiombe,-25.3,45.4833,21.04,85,0,3.2,MG,1715111235
342,pontivy,48.0,-3.0,15.71,93,0,3.04,FR,1715110941
343,luwuk,-0.9516,122.7875,23.25,89,46,1.06,ID,1715111236
344,bubaque,11.2833,-15.8333,26.67,74,0,7.88,GW,1715111236
345,volchansk,59.9378,60.081,0.28,75,100,0.83,RU,1715111236
346,este,45.2229,11.6587,15.55,21,100,1.87,IT,1715111236
347,vallenar,-28.5708,-70.7581,19.58,43,0,4.02,CL,1715111236
348,apolinario saravia,-24.4328,-63.9954,29.65,62,100,3.76,AR,1715111237
349,butembo,0.15,29.2833,17.12,76,62,1.6,CD,1715111237
350,colonel hill,22.7667,-74.2167,25.39,80,12,7.23,BS,1715111237
351,shingu,33.7333,135.9833,14.18,83,100,2.63,JP,1715111237
352,tvoroyri,61.5556,-6.8111,8.49,82,98,7.32,FO,1715111237
353,kargasok,59.0556,80.8572,8.31,68,100,4.92,RU,1715111237
354,mildura,-34.2,142.15,8.93,78,0,4.79,AU,1715111238
355,zhezqazghan,47.7833,67.7667,14.58,54,3,5.38,KZ,1715111238
356,princeville,45.7668,-61.2985,14.62,66,6,4.6,CA,1715111238
357,billund,55.7335,9.1078,12.78,76,100,2.57,DK,1715111238
358,hefei,31.8639,117.2808,17.01,77,0,1.0,CN,1715111239
359,madison,34.7334,-86.5667,27.91,71,100,6.69,US,1715111239
360,licheng,23.2955,113.8284,22.44,96,100,1.8,CN,1715111239
361,badger,64.8,-147.5333,7.99,76,75,1.54,US,1715111239
362,pangody,65.85,74.4859,-5.04,95,99,6.84,RU,1715111239
363,matoury,4.8483,-52.3317,28.98,79,75,5.66,GF,1715111239
364,williams lake,52.1415,-122.1445,11.7,40,97,1.34,CA,1715111105
365,masterton,-40.9597,175.6575,1.72,84,8,1.16,NZ,1715111240
366,atchison,39.563,-95.1216,25.36,40,37,5.81,US,1715111240
367,franceville,-1.6333,13.5836,26.59,77,100,0.81,GA,1715111240
368,leshan,29.5623,103.7639,19.77,87,100,0.77,CN,1715111240
369,likiep,9.8251,169.3107,28.01,75,100,8.49,MH,1715111240
370,carutapera,-1.195,-46.02,26.62,92,44,2.79,BR,1715111240
371,meadow lake,34.8014,-106.5436,25.26,9,3,12.29,US,1715111241
372,hirara,24.8,125.2833,22.92,83,20,3.6,JP,1715111241
373,novodvinsk,64.4165,40.8122,-2.14,79,35,1.73,RU,1715111241
374,benguela,-12.5763,13.4055,25.09,85,97,1.08,AO,1715111241
375,ar rahad,12.7167,30.65,30.93,12,36,5.65,SD,1715111241
376,china,25.7,-99.2333,37.98,41,100,3.99,MX,1715110971
377,yulinshi,38.2906,109.7494,17.5,22,9,1.8,CN,1715111090
378,balqash,46.8481,74.995,18.76,42,55,1.98,KZ,1715111242
379,remire-montjoly,4.9167,-52.2667,29.02,79,75,5.66,GF,1715111242
380,harrismith,-28.2728,29.1295,12.35,30,0,1.77,ZA,1715111242
381,hotan,37.0997,79.9269,21.02,24,0,1.63,CN,1715111242
382,oroqen zizhiqi,50.5667,123.7167,10.75,45,100,1.63,CN,1715111242
383,east london,-33.0153,27.9116,23.3,58,0,5.24,ZA,1715111242
384,bandrele,-12.9067,45.1914,27.86,74,0,3.09,YT,1715111242
385,kapuskasing,49.4169,-82.4331,17.25,34,100,3.09,CA,1715111243
386,ta`u,-14.2336,-169.5144,28.96,80,85,4.94,AS,1715111243
387,tiassale,5.8983,-4.8283,26.53,87,98,1.97,CI,1715111243
388,micheweni,-4.9667,39.8333,26.69,82,100,6.35,TZ,1715111243
389,mount pearl,47.5166,-52.7813,8.86,93,100,1.57,CA,1715111243
390,thomson,33.4707,-82.5046,31.57,51,40,5.14,US,1715111243
391,tarrafal de sao nicolau,16.5667,-24.3667,23.24,73,8,3.73,CV,1715111244
392,mogadishu,2.0371,45.3438,27.59,86,96,5.73,SO,1715111244
393,guadalupe y calvo,26.1,-106.9667,23.22,7,99,5.17,MX,1715111244
394,tarauaca,-8.1614,-70.7656,31.14,60,100,1.61,BR,1715111244
395,alupka,44.4167,34.05,13.03,54,0,2.87,UA,1715111244
396,san mariano,7.5,126.0,21.61,76,98,1.56,PH,1715111244
397,cannonvale,-20.2833,148.7,22.66,82,41,7.89,AU,1715111244
398,nova sintra,14.8667,-24.7167,24.05,72,5,6.54,CV,1715111245
399,qujing,25.4833,103.7833,15.89,78,100,1.86,CN,1715111245
400,bryne,58.7354,5.6477,11.8,88,75,2.06,NO,1715111245
401,el nido,11.1858,119.3956,27.61,77,58,0.76,PH,1715111245
402,lata,40.1629,-8.3327,13.96,78,100,1.18,PT,1715111245
403,ad darb,17.7229,42.2526,30.08,64,0,2.26,SA,1715111245
404,mgandu,-5.95,34.1333,17.42,87,98,3.28,TZ,1715111245
405,okha,53.5739,142.9478,-0.42,81,95,4.02,RU,1715111246
406,luba,3.4568,8.5547,27.94,82,93,1.77,GQ,1715111246
407,hengshui,37.7322,115.7011,15.71,30,0,2.76,CN,1715111246
408,praia da vitoria,38.7333,-27.0667,20.14,83,75,7.96,PT,1715111246
409,gisborne,-38.6533,178.0042,11.83,71,100,3.54,NZ,1715111246
410,tolanaro,-25.0319,46.9987,23.04,88,40,4.12,MG,1715111246
411,kourou,5.1552,-52.6478,29.03,77,100,4.09,GF,1715111246
412,gorodoviki,46.1353,41.9656,12.26,77,5,3.63,RU,1715111247
413,sur,22.5667,59.5289,33.93,48,10,3.36,OM,1715111247
414,daru,-9.0763,143.2092,26.2,89,97,7.09,PG,1715111247
415,monduli,-3.3,36.45,17.09,92,100,3.29,TZ,1715111248
416,edd,13.9297,41.6925,29.52,71,6,3.06,ER,1715111248
417,iquitos,-3.7481,-73.2472,33.02,70,40,2.06,PE,1715111248
418,ishigaki,24.3448,124.1572,23.07,83,9,3.6,JP,1715111248
419,miquelon,47.0975,-56.3814,9.0,92,100,5.37,PM,1715111248
420,moultonborough,43.7548,-71.3967,23.77,30,85,1.34,US,1715111249
421,farafangana,-22.8167,47.8333,22.77,84,49,5.04,MG,1715111249
422,chajari,-30.7505,-57.9796,25.53,86,100,2.21,AR,1715111249
423,la romana,18.4273,-68.9728,30.2,79,40,5.14,DO,1715111249
424,vrangel',42.7297,133.0839,5.04,81,100,2.63,RU,1715111249
425,dili,-8.5586,125.5736,26.66,80,8,1.5,TL,1715111249
426,camana,-16.6228,-72.7111,20.6,81,52,4.82,PE,1715111250
427,patterson,37.4716,-121.1297,20.54,52,7,6.07,US,1715111250
428,mermoz boabab,14.7065,-17.4758,26.31,83,0,3.09,SN,1715111250
429,tacna,-18.0056,-70.2483,19.11,68,75,6.69,PE,1715111250
430,dunedin,-45.8742,170.5036,10.45,67,31,0.45,NZ,1715111250
431,yuzhno-kurilsk,44.0306,145.8556,2.99,95,100,7.72,RU,1715111250
432,seryshevo,51.0933,128.3786,12.07,38,91,3.96,RU,1715111251
433,olyokminsk,60.3736,120.4264,1.76,87,79,2.37,RU,1715111251
434,okhotsk,59.3833,143.3,0.18,88,44,3.93,RU,1715111251
435,guerrero negro,27.9769,-114.0611,20.06,53,0,8.19,MX,1715111251
436,yanam,16.7333,82.2167,26.88,87,100,1.69,IN,1715111251
437,happy valley-goose bay,53.3168,-60.3315,6.55,67,98,4.61,CA,1715111251
438,porto barra do ivinheima,-22.9667,-53.6667,34.42,27,3,3.36,BR,1715111251
439,forster,-32.1667,152.5167,14.1,100,93,2.13,AU,1715111252
440,menongue,-14.6585,17.691,19.04,65,20,2.86,AO,1715111252
441,cockburn town,21.4612,-71.1419,24.43,83,100,7.89,TC,1715111252
442,fort mcmurray,56.7268,-111.381,9.26,94,100,2.8,CA,1715111119
443,panaba,21.2833,-88.2667,41.02,22,41,5.04,MX,1715111252
444,kavaratti,10.5669,72.642,30.36,68,80,5.33,IN,1715111252
445,saint-denis,48.9167,2.3333,16.27,78,40,4.12,FR,1715111253
446,champerico,14.3,-91.9167,36.3,65,68,5.67,GT,1715111253
447,huatusco,19.15,-96.95,36.28,20,100,3.86,MX,1715111253
448,edinburgh,55.9521,-3.1965,12.8,87,40,2.57,GB,1715110862
449,masuguru,-11.3667,38.4167,22.21,89,34,1.62,TZ,1715111253
450,pont-sainte-marie,48.3185,4.0945,16.03,77,0,3.09,FR,1715111253
451,douentza,14.9951,-2.9517,35.03,29,70,1.83,ML,1715111253
452,tumaco,1.7986,-78.8156,27.21,88,100,6.55,CO,1715111253
453,clinton,42.587,-82.9199,21.62,60,75,5.66,US,1715111254
454,cimitarra,6.3142,-73.9497,34.58,50,44,0.95,CO,1715111254
455,tarawa,1.419,172.984,28.57,81,99,6.51,KI,1715111254
456,at taj,24.2049,23.2857,24.37,17,3,3.44,LY,1715111254
457,horta,38.5333,-28.6333,18.8,93,40,7.6,PT,1715111254
458,"laikit, laikit ii (dimembe)",1.4792,124.9735,22.47,100,20,0.51,ID,1715111254
459,sao jose da coroa grande,-8.8978,-35.1478,27.35,79,87,3.15,BR,1715111255
460,mitu,1.1983,-70.1733,27.95,92,84,1.24,CO,1715111255
461,bukhara,39.7747,64.4286,24.97,41,0,3.09,UZ,1715111255
462,kattivakkam,13.2167,80.3167,31.17,86,72,3.53,IN,1715111255
463,kaga bandoro,6.9896,19.1874,27.65,55,88,2.04,CF,1715111255
464,san fernando,15.0286,120.6898,27.85,70,91,0.89,PH,1715111255
465,namdrik,5.5994,168.1028,27.37,86,100,9.11,MH,1715111255
466,vyazemskiy,47.5378,134.7525,2.85,57,10,1.23,RU,1715111256
467,port isabel,26.0734,-97.2086,34.46,74,40,8.23,US,1715111256
468,camden,39.7835,-74.9663,28.77,51,100,0.45,US,1715111256
469,nacozari de garcia,30.3742,-109.6908,27.61,11,0,7.87,MX,1715111256
470,xianning,29.8833,114.2167,19.94,80,91,1.39,CN,1715111256
471,porto recanati,43.4365,13.6613,16.51,91,23,4.24,IT,1715111256
472,puerto quijarro,-17.7833,-57.7667,36.05,26,4,3.48,BO,1715111256
473,igarka,67.4667,86.5833,-11.66,97,67,2.24,RU,1715111257
474,belyy yar,53.6039,91.3903,6.94,61,0,3.0,RU,1715111257
475,port blair,11.6667,92.75,26.02,94,40,1.03,IN,1715111257
476,machina,13.1364,10.0492,34.03,11,64,3.64,NG,1715111257
477,al hamul,31.3115,31.1477,16.45,67,0,2.93,EG,1715111257
478,acapulco de juarez,16.8634,-99.8901,28.9,65,0,7.2,MX,1715111199
479,san ignacio,17.1561,-89.0714,39.08,39,0,3.09,BZ,1715111257
480,merizo village,13.2658,144.6691,27.31,87,100,5.17,GU,1715111258
481,ilhabela,-23.7781,-45.3581,25.45,72,4,1.83,BR,1715111258
482,lakatoro,-16.0999,167.4164,23.69,76,98,2.49,VU,1715111258
483,elko,41.0002,-115.5012,6.2,43,100,9.39,US,1715111258
484,greymouth,-42.4667,171.2,3.83,77,21,3.05,NZ,1715111258
485,touros,-5.1989,-35.4608,27.01,77,93,4.14,BR,1715111258
486,laguna larga,-31.7765,-63.801,23.27,53,0,3.73,AR,1715111258
487,bel ombre,-4.6167,55.4167,25.91,94,75,2.06,SC,1715111259
488,westport,41.1415,-73.3579,27.87,40,0,3.6,US,1715111071
489,chunskiy,56.0815,99.6342,4.26,60,7,1.59,RU,1715111259
490,hilvan,37.5869,38.9551,13.49,71,40,5.66,TR,1715111259
491,cizre,37.3272,42.1903,12.56,93,75,2.06,TR,1715111259
492,akjoujt,19.6969,-14.4164,35.11,9,0,4.63,MR,1715111259
493,rio preto da eva,-2.6994,-59.6997,28.78,75,100,1.77,BR,1715111259
494,laojunmiao,39.8333,97.7333,13.39,25,56,0.71,CN,1715111260
495,belmonte,-15.8631,-38.8828,25.71,83,23,2.65,BR,1715111260
496,nikolayevsk-on-amure,53.1406,140.73,0.12,72,11,2.24,RU,1715111260
497,harper,4.375,-7.7169,27.98,80,58,3.84,LR,1715111260
498,sinop,41.7711,34.8709,10.17,71,0,2.75,TR,1715111260
499,ola,59.5833,151.2833,0.08,97,98,2.53,RU,1715111260
500,ciudad insurgentes,25.2625,-111.7753,26.73,25,80,7.48,MX,1715111261
501,enriquillo,17.9,-71.2333,31.82,66,63,3.02,DO,1715111261
502,pacasmayo,-7.4006,-79.5714,21.84,75,46,8.37,PE,1715111261
503,yaren,-0.5472,166.916,28.72,74,100,3.74,NR,1715111261
504,presidente olegario,-18.4178,-46.4181,24.24,55,72,1.65,BR,1715111261
505,khon kaen,16.5,102.0833,25.41,76,100,1.21,TH,1715111261
506,cestos city,5.46,-9.5828,28.13,82,90,3.63,LR,1715111261
507,new norfolk,-42.7826,147.0587,11.62,87,100,0.48,AU,1715111262
508,abomsa,9.9833,39.9833,23.53,60,30,3.08,ET,1715111262
509,kaduna,10.5222,7.4383,26.79,58,100,1.6,NG,1715111262
510,coyhaique,-45.5752,-72.0662,2.97,75,75,0.0,CL,1715111262
511,timbuktu,16.7735,-3.0074,33.14,36,11,3.95,ML,1715111262
512,la'ie,21.6477,-157.9253,27.98,70,16,1.79,US,1715111262
513,dazhou,31.2159,107.5009,20.0,86,100,2.02,CN,1715111263
514,barra de santo antonio,-9.4047,-35.5072,25.6,82,99,4.34,BR,1715111263
515,sen monorom,12.45,107.2,20.27,94,52,0.42,KH,1715111263
516,neya,58.2972,43.8681,1.8,74,100,4.84,RU,1715111263
517,maitum,6.0392,124.4986,26.19,83,72,1.14,PH,1715111263
518,palmer,42.1584,-72.3287,27.18,28,20,1.54,US,1715111263
519,colotlan,22.1,-103.2667,33.08,9,100,3.98,MX,1715111082
520,mahina,-17.5065,-149.489,28.87,74,40,2.06,PF,1715110982
521,island harbour,50.724,-1.2758,17.02,77,24,0.97,GB,1715111264
522,sola,-13.8833,167.55,26.78,68,99,8.25,VU,1715111264
523,katsuura,35.1333,140.3,19.31,87,100,6.12,JP,1715111264
524,alice springs,-23.7,133.8833,12.75,76,100,2.06,AU,1715111264
525,wangkui,46.8333,126.5,11.77,27,69,2.93,CN,1715111264
526,alo,7.4178,6.7371,28.7,72,99,0.77,NG,1715111264
527,buena vista,43.4203,-83.8986,21.1,62,100,6.17,US,1715111217
528,longgang,37.6508,120.3286,12.42,76,3,0.58,CN,1715111265
529,thunder bay,48.4001,-89.3168,11.45,60,100,5.84,CA,1715111265
530,el sauzal de rodriguez,31.9,-116.6833,19.12,62,3,3.38,MX,1715111265
531,llaillay,-32.85,-70.9667,9.58,99,100,1.9,CL,1715111265
532,dzuunharaa,48.8523,106.4579,7.41,73,100,6.28,MN,1715111265
533,christchurch,-43.5333,172.6333,-2.89,100,4,1.03,NZ,1715110519
534,atbasar,51.8,68.3333,8.98,63,0,2.8,KZ,1715111265
535,puerto armuelles,8.2833,-82.8667,30.99,69,52,1.79,PA,1715111107
536,tommot,58.9564,126.2925,2.38,100,100,0.84,RU,1715111266
537,laibin,23.7,109.2667,23.79,88,100,2.36,CN,1715111266
538,illizi,26.4833,8.4667,35.89,12,11,2.97,DZ,1715111266
539,songea,-10.6833,35.65,18.64,82,20,1.54,TZ,1715111266
540,tres palos,18.1833,-101.6167,37.08,12,100,3.46,MX,1715111266
541,inirida,3.8653,-67.9239,32.64,59,53,0.54,CO,1715111266
542,mhamid,29.82,-5.72,30.7,8,100,2.9,MA,1715111267
543,freetown,8.484,-13.2299,28.84,74,40,6.17,SL,1715111267
544,san julian,21.0167,-102.1667,32.0,9,100,4.34,MX,1715111267
545,pasuquin,18.3328,120.6177,26.97,83,20,1.54,PH,1715111267
546,babolsar,36.7025,52.6576,15.18,81,0,1.77,IR,1715111267
547,queenstown,-31.8976,26.8753,16.23,34,0,2.69,ZA,1715111267
548,gamba,-2.65,10.0,26.61,90,99,2.18,GA,1715111267
549,hinatuan,8.3722,126.3342,24.08,93,100,1.6,PH,1715111268
550,domerat,46.3606,2.5343,11.26,94,35,2.16,FR,1715111268
551,malanje,-9.5402,16.341,19.73,63,16,0.48,AO,1715111268
552,dekalb,33.7504,-84.2333,29.1,61,75,3.6,US,1715111268
553,al kharijah,25.4514,30.5464,23.15,22,0,4.57,EG,1715111268
554,banda aceh,5.5577,95.3222,27.49,82,100,3.4,ID,1715111268
555,shanwei,22.782,115.3475,24.56,81,100,1.17,CN,1715111268
556,belinskiy,52.9647,43.4165,10.56,95,97,4.99,RU,1715111269
557,akureyri,65.6835,-18.0878,6.96,70,75,9.26,IS,1715111269
558,yemetsk,63.4721,41.7941,-4.49,73,36,2.14,RU,1715111269
559,brookings,44.3114,-96.7984,16.19,61,100,9.26,US,1715111269
560,kayangel,8.0823,134.7173,28.02,76,74,4.4,PW,1715111269
561,port saint john's,-31.6229,29.5448,24.1,49,0,2.94,ZA,1715111269
562,sao gabriel da cachoeira,-0.1303,-67.0892,31.89,66,20,2.06,BR,1715111270
563,zanjan,36.6736,48.4787,9.56,66,5,4.1,IR,1715111270
564,bijie,27.3125,105.2942,14.61,97,100,1.48,CN,1715111270
565,gore,-46.1028,168.9436,2.96,92,62,1.5,NZ,1715111270
566,ponta delgada,37.7333,-25.6667,19.4,88,20,3.09,PT,1715111242
567,kone,-21.0595,164.8658,18.74,87,11,1.0,NC,1715111270
568,maua,-23.6678,-46.4614,31.31,39,2,2.5,BR,1715111270
569,tamandare,-8.7597,-35.1047,27.27,78,96,2.52,BR,1715111271
570,keelung,25.1283,121.7419,25.61,81,42,4.57,TW,1715111271
571,tonj,7.2737,28.6822,31.34,37,11,1.81,SS,1715111271
572,wicklow,53.0,-6.4167,11.24,86,87,0.99,IE,1715111271
573,lautoka,-17.6167,177.4667,23.92,83,20,1.03,FJ,1715111271
574,sainte-anne-des-monts,49.124,-66.4924,5.81,92,100,4.0,CA,1715111271
575,i-n-salah,27.1935,2.4607,34.04,7,5,4.24,DZ,1715111271
576,mukalla,14.5425,49.1242,29.18,75,0,3.08,YE,1715111272
577,aykhal,66.0,111.5,-4.73,94,97,9.01,RU,1715111272
578,margate,51.3813,1.3862,13.5,90,27,1.79,GB,1715111272
579,durango,24.8333,-104.8333,30.84,8,100,7.58,MX,1715111073
580,jayapura,-2.5333,140.7,25.66,95,100,1.42,ID,1715111272
581,mpophomeni,-29.5682,30.1862,15.4,40,0,2.31,ZA,1715111272
582,saint-gely-du-fesc,43.6927,3.8049,16.25,58,0,3.6,FR,1715111272
583,neryungri,56.6709,124.6491,3.44,100,100,2.24,RU,1715111273
